stop_id,stop_code,stop_name,stop_lat,stop_lon,stop_url,location_type,parent_station,platform_code
1473373,9392,Adršpach,50.615412,16.124829,http://kd.kiedyprzyjedzie.pl/9392,1,,
1536273,,Adršpach,50.615412,16.124829,,0,1473373,
1413064,9429,Arnsdorf (b Dresden),51.093017,13.981679,http://kd.kiedyprzyjedzie.pl/9429,1,,
1474632,,Arnsdorf (b Dresden),51.093017,13.981679,,0,1413064,
1413065,6021,Bardo Przyłęk,50.509532,16.758018,http://kd.kiedyprzyjedzie.pl/6021,1,,
1474849,,Bardo Przyłęk,50.509532,16.758018,,0,1413065,I
1475207,,Bardo Przyłęk,50.509532,16.758018,,0,1413065,II
1413066,6022,Bardo Śląskie,50.504857,16.733784,http://kd.kiedyprzyjedzie.pl/6022,1,,
1474848,,Bardo Śląskie,50.504857,16.733784,,0,1413066,II
1474644,,Bardo Śląskie,50.504857,16.733784,,0,1413066,I
1413067,6023,Bartnica,50.641933,16.407955,http://kd.kiedyprzyjedzie.pl/6023,1,,
1474765,,Bartnica,50.641933,16.407955,,0,1413067,II
1474813,,Bartnica,50.641933,16.407955,,0,1413067,I
1413068,6025,Batowice Lubańskie,51.090889,15.155701,http://kd.kiedyprzyjedzie.pl/6025,1,,
1474942,,Batowice Lubańskie,51.090889,15.155701,,0,1413068,I
1413069,9430,Bautzen,51.173106,14.428793,http://kd.kiedyprzyjedzie.pl/9430,1,,
1474626,,Bautzen,51.173106,14.428793,,0,1413069,
1413071,9426,Berlin-Lichtenberg,52.509792,13.49614,http://kd.kiedyprzyjedzie.pl/9426,1,,
1475117,,Berlin-Lichtenberg,52.509792,13.49614,,0,1413071,
1413070,9425,Berlin Ostkreuz,52.503167,13.469571,http://kd.kiedyprzyjedzie.pl/9425,1,,
1475116,,Berlin Ostkreuz,52.503167,13.469571,,0,1413070,
1413072,9381,Bernartice u Trutnova,50.647077,15.958691,http://kd.kiedyprzyjedzie.pl/9381,1,,
1474828,,Bernartice u Trutnova,50.647077,15.958691,,0,1413072,
1413073,6029,Biała Górna,51.297944,15.928636,http://kd.kiedyprzyjedzie.pl/6029,1,,
1474840,,Biała Górna,51.297944,15.928636,,0,1413073,I
1413074,6031,Biały Kościół,50.728378,17.030043,http://kd.kiedyprzyjedzie.pl/6031,1,,
1474853,,Biały Kościół,50.728378,17.030043,,0,1413074,II
1413075,6032,Bielany Wrocławskie,51.036155,16.975787,http://kd.kiedyprzyjedzie.pl/6032,1,,
1474654,,Bielany Wrocławskie,51.036155,16.975787,,0,1413075,I
1474698,,Bielany Wrocławskie,51.036155,16.975787,,0,1413075,II
1474682,,Bielany Wrocławskie,51.036155,16.975787,,0,1413075,
1413076,7585,Bielawa Centralna,50.692802,16.620761,http://kd.kiedyprzyjedzie.pl/7585,1,,
1474686,,Bielawa Centralna,50.692802,16.620761,,0,1413076,I
1413077,7580,Bielawa Zachodnia,50.685838,16.606755,http://kd.kiedyprzyjedzie.pl/7580,1,,
1474687,,Bielawa Zachodnia,50.685838,16.606755,,0,1413077,II
1413078,6035,Bierkowice,50.475534,16.605059,http://kd.kiedyprzyjedzie.pl/6035,1,,
1474773,,Bierkowice,50.475534,16.605059,,0,1413078,I
1413079,9431,Bischofswerda,51.125443,14.185871,http://kd.kiedyprzyjedzie.pl/9431,1,,
1474629,,Bischofswerda,51.125443,14.185871,,0,1413079,
1413080,6040,Błażkowa,50.744254,15.990104,http://kd.kiedyprzyjedzie.pl/6040,1,,
1474831,,Błażkowa,50.744254,15.990104,,0,1413080,I
1474834,,Błażkowa,50.744254,15.990104,,0,1413080,
1413081,6044,Boguszów-Gorce,50.750404,16.201639,http://kd.kiedyprzyjedzie.pl/6044,1,,
1474759,,Boguszów-Gorce,50.750404,16.201639,,0,1413081,II
1474820,,Boguszów-Gorce,50.750404,16.201639,,0,1413081,I
1413082,6620,Boguszów-Gorce Dzikowiec,50.727608,16.21765,http://kd.kiedyprzyjedzie.pl/6620,1,,
1536269,,Boguszów-Gorce Dzikowiec,50.727608,16.21765,,0,1413082,I
1413083,6045,Boguszów-Gorce Wschód,50.747926,16.221761,http://kd.kiedyprzyjedzie.pl/6045,1,,
1474916,,Boguszów-Gorce Wschód,50.747926,16.221761,,0,1413083,I
1475153,,Boguszów-Gorce Wschód,50.747926,16.221761,,0,1413083,II
1536270,,Boguszów-Gorce Wschód,50.747926,16.221761,,0,1413083,III
1413084,6046,Boguszów-Gorce Zachód,50.76236,16.167264,http://kd.kiedyprzyjedzie.pl/6046,1,,
1475152,,Boguszów-Gorce Zachód,50.76236,16.167264,,0,1413084,I
1474917,,Boguszów-Gorce Zachód,50.76236,16.167264,,0,1413084,II
1413085,7044,Bojanowo,51.700677,16.744001,http://kd.kiedyprzyjedzie.pl/7044,1,,
1475246,,Bojanowo,51.700677,16.744001,,0,1413085,
1413086,6047,Bolesławice Świdnickie,50.887692,16.464624,http://kd.kiedyprzyjedzie.pl/6047,1,,
1474690,,Bolesławice Świdnickie,50.887692,16.464624,,0,1413086,I
1474696,,Bolesławice Świdnickie,50.887692,16.464624,,0,1413086,II
1474693,,Bolesławice Świdnickie,50.887692,16.464624,,0,1413086,
1413087,10,Bolesławiec,51.266092,15.569574,http://kd.kiedyprzyjedzie.pl/10,1,,
1475112,,Bolesławiec,51.266092,15.569574,,0,1413087,II
1474945,,Bolesławiec,51.266092,15.569574,,0,1413087,I
1413088,6049,Boreczek,50.878928,17.024576,http://kd.kiedyprzyjedzie.pl/6049,1,,
1474855,,Boreczek,50.878928,17.024576,,0,1413088,I
1475195,,Boreczek,50.878928,17.024576,,0,1413088,II
1413089,6052,Borowa Oleśnicka,51.184119,17.276103,http://kd.kiedyprzyjedzie.pl/6052,1,,
1475211,,Borowa Oleśnicka,51.184119,17.276103,,0,1413089,I
1475086,,Borowa Oleśnicka,51.184119,17.276103,,0,1413089,II
1413090,9432,Breitendorf,51.138586,14.622877,http://kd.kiedyprzyjedzie.pl/9432,1,,
1474623,,Breitendorf,51.138586,14.622877,,0,1413090,
1413091,6549,Brochocin Trzebnicki,51.276035,17.094187,http://kd.kiedyprzyjedzie.pl/6549,1,,
1474712,,Brochocin Trzebnicki,51.276035,17.094187,,0,1413091,I
1474982,,Brochocin Trzebnicki,51.276035,17.094187,,0,1413091,
1413092,12,Brzeg Dolny,51.266894,16.725,http://kd.kiedyprzyjedzie.pl/12,1,,
1474786,,Brzeg Dolny,51.266894,16.725,,0,1413092,II
1536298,,Brzeg Dolny,51.266894,16.725,,0,1413092,
1413093,6058,Brzeg Głogowski,51.690987,15.918436,http://kd.kiedyprzyjedzie.pl/6058,1,,
1475079,,Brzeg Głogowski,51.690987,15.918436,,0,1413093,I
1475242,,Brzeg Głogowski,51.690987,15.918436,,0,1413093,II
1536308,,Brzeg Głogowski,51.690987,15.918436,,0,1413093,
1413094,6060,Brzezinka Średzka,51.219716,16.836806,http://kd.kiedyprzyjedzie.pl/6060,1,,
1475067,,Brzezinka Średzka,51.219716,16.836806,,0,1413094,II
1474789,,Brzezinka Średzka,51.219716,16.836806,,0,1413094,I
1536295,,Brzezinka Średzka,51.219716,16.836806,,0,1413094,
1413095,6064,Bukowice Trzebnickie,51.399495,17.368564,http://kd.kiedyprzyjedzie.pl/6064,1,,
1536317,,Bukowice Trzebnickie,51.399495,17.368564,,0,1413095,
1475098,,Bukowice Trzebnickie,51.399495,17.368564,,0,1413095,II
1475091,,Bukowice Trzebnickie,51.399495,17.368564,,0,1413095,I
1413096,6614,Burkatów,50.793493,16.473334,http://kd.kiedyprzyjedzie.pl/6614,1,,
1474797,,Burkatów,50.793493,16.473334,,0,1413096,I
1413097,6615,Bystrzyca Górna,50.78127,16.456173,http://kd.kiedyprzyjedzie.pl/6615,1,,
1474798,,Bystrzyca Górna,50.78127,16.456173,,0,1413097,I
1413098,6070,Bystrzyca Kłodzka,50.296883,16.654959,http://kd.kiedyprzyjedzie.pl/6070,1,,
1474880,,Bystrzyca Kłodzka,50.296883,16.654959,,0,1413098,I
1413099,6069,Bystrzyca Kłodzka Przedmieście,50.285645,16.647031,http://kd.kiedyprzyjedzie.pl/6069,1,,
1474879,,Bystrzyca Kłodzka Przedmieście,50.285645,16.647031,,0,1413099,II
1474884,,Bystrzyca Kłodzka Przedmieście,50.285645,16.647031,,0,1413099,I
1413100,7069,Bytom Odrzański,51.726609,15.8206,http://kd.kiedyprzyjedzie.pl/7069,1,,
1475057,,Bytom Odrzański,51.726609,15.8206,,0,1413100,I
1475059,,Bytom Odrzański,51.726609,15.8206,,0,1413100,
1413101,6071,Chełmek Wołowski,51.456047,16.35949,http://kd.kiedyprzyjedzie.pl/6071,1,,
1475074,,Chełmek Wołowski,51.456047,16.35949,,0,1413101,I
1475186,,Chełmek Wołowski,51.456047,16.35949,,0,1413101,II
1536304,,Chełmek Wołowski,51.456047,16.35949,,0,1413101,
1413102,6074,Chocianów,51.41655,15.91198,http://kd.kiedyprzyjedzie.pl/6074,1,,
1474842,,Chocianów,51.41655,15.91198,,0,1413102,I
1413103,902,Chojnów,51.277673,15.937479,http://kd.kiedyprzyjedzie.pl/902,1,,
1474839,,Chojnów,51.277673,15.937479,,0,1413103,II
1474946,,Chojnów,51.277673,15.937479,,0,1413103,I
1413104,6076,Chróstnik,51.355982,16.181035,http://kd.kiedyprzyjedzie.pl/6076,1,,
1475016,,Chróstnik,51.355982,16.181035,,0,1413104,
1474959,,Chróstnik,51.355982,16.181035,,0,1413104,I
1413105,6573,Chrząstawa Mała,51.07349,17.276143,http://kd.kiedyprzyjedzie.pl/6573,1,,
1475176,,Chrząstawa Mała,51.07349,17.276143,,0,1413105,I
1413106,6082,Ciechanowice,50.865413,15.979858,http://kd.kiedyprzyjedzie.pl/6082,1,,
1475155,,Ciechanowice,50.865413,15.979858,,0,1413106,II
1474919,,Ciechanowice,50.865413,15.979858,,0,1413106,I
1413108,6083,Cieśle,51.226448,17.470665,http://kd.kiedyprzyjedzie.pl/6083,1,,
1474981,,Cieśle,51.226448,17.470665,,0,1413108,
1413107,7088,Cieszków,51.631359,17.352567,http://kd.kiedyprzyjedzie.pl/7088,1,,
1475095,,Cieszków,51.631359,17.352567,,0,1413107,I
1413109,9424,Cottbus Hbf,51.751296,14.322298,http://kd.kiedyprzyjedzie.pl/9424,1,,
1475115,,Cottbus Hbf,51.751296,14.322298,,0,1413109,
1413110,6086,Czerna,51.702254,15.88466,http://kd.kiedyprzyjedzie.pl/6086,1,,
1475080,,Czerna,51.702254,15.88466,,0,1413110,II
1536309,,Czerna,51.702254,15.88466,,0,1413110,
1475241,,Czerna,51.702254,15.88466,,0,1413110,I
1413111,6087,Czerna Mała,51.229974,16.803546,http://kd.kiedyprzyjedzie.pl/6087,1,,
1474788,,Czerna Mała,51.229974,16.803546,,0,1413111,II
1475068,,Czerna Mała,51.229974,16.803546,,0,1413111,I
1536296,,Czerna Mała,51.229974,16.803546,,0,1413111,
1413112,6089,Czernica Wrocławska,51.049672,17.235816,http://kd.kiedyprzyjedzie.pl/6089,1,,
1474906,,Czernica Wrocławska,51.049672,17.235816,,0,1413112,I
1413113,9433,Demitz-Thumitz,51.142193,14.239556,http://kd.kiedyprzyjedzie.pl/9433,1,,
1474628,,Demitz-Thumitz,51.142193,14.239556,,0,1413113,
1413114,9316,Desná,50.753505,15.308954,http://kd.kiedyprzyjedzie.pl/9316,1,,
1474606,,Desná,50.753505,15.308954,,0,1413114,
1413115,9313,Desná-Pustinská,50.764235,15.335626,http://kd.kiedyprzyjedzie.pl/9313,1,,
1474609,,Desná-Pustinská,50.764235,15.335626,,0,1413115,
1413116,9315,Desná-Riedlova vila,50.75928,15.3139,http://kd.kiedyprzyjedzie.pl/9315,1,,
1474607,,Desná-Riedlova vila,50.75928,15.3139,,0,1413116,
1413117,6097,Długołęka,51.178462,17.194448,http://kd.kiedyprzyjedzie.pl/6097,1,,
1475212,,Długołęka,51.178462,17.194448,,0,1413117,I
1475085,,Długołęka,51.178462,17.194448,,0,1413117,II
1475224,,Długołęka,51.178462,17.194448,,0,1413117,
1413118,6099,Długopole-Zdrój,50.23843,16.637997,http://kd.kiedyprzyjedzie.pl/6099,1,,
1474878,,Długopole-Zdrój,50.23843,16.637997,,0,1413118,I
1413119,6102,Dobroszyce,51.270505,17.363797,http://kd.kiedyprzyjedzie.pl/6102,1,,
1475089,,Dobroszyce,51.270505,17.363797,,0,1413119,II
1475216,,Dobroszyce,51.270505,17.363797,,0,1413119,I
1475225,,Dobroszyce,51.270505,17.363797,,0,1413119,
1413120,6104,Dobrzykowice Wrocławskie,51.08755,17.180029,http://kd.kiedyprzyjedzie.pl/6104,1,,
1475173,,Dobrzykowice Wrocławskie,51.08755,17.180029,,0,1413120,I
1475178,,Dobrzykowice Wrocławskie,51.08755,17.180029,,0,1413120,II
1413121,9314,Dolní Polubný,50.760536,15.323138,http://kd.kiedyprzyjedzie.pl/9314,1,,
1474608,,Dolní Polubný,50.760536,15.323138,,0,1413121,
1413122,6106,Domasław,51.010048,16.952937,http://kd.kiedyprzyjedzie.pl/6106,1,,
1474662,,Domasław,51.010048,16.952937,,0,1413122,I
1474655,,Domasław,51.010048,16.952937,,0,1413122,
1413123,6107,Domaszków,50.213153,16.655238,http://kd.kiedyprzyjedzie.pl/6107,1,,
1474877,,Domaszków,50.213153,16.655238,,0,1413123,II
1474887,,Domaszków,50.213153,16.655238,,0,1413123,I
1413124,9420,Dresden Hbf,51.040374,13.731484,http://kd.kiedyprzyjedzie.pl/9420,1,,
1474639,,Dresden Hbf,51.040374,13.731484,,0,1413124,
1413125,9434,Dresden Industriegelände,51.087221,13.762575,http://kd.kiedyprzyjedzie.pl/9434,1,,
1474636,,Dresden Industriegelände,51.087221,13.762575,,0,1413125,
1413127,9436,Dresden-Klotzsche,51.114426,13.788882,http://kd.kiedyprzyjedzie.pl/9436,1,,
1474635,,Dresden-Klotzsche,51.114426,13.788882,,0,1413127,
1413126,9435,Dresden Mitte,51.056089,13.724208,http://kd.kiedyprzyjedzie.pl/9435,1,,
1474638,,Dresden Mitte,51.056089,13.724208,,0,1413126,
1413128,9437,Dresden-Neustadt,51.065893,13.74058,http://kd.kiedyprzyjedzie.pl/9437,1,,
1474637,,Dresden-Neustadt,51.065893,13.74058,,0,1413128,
1413129,35,Duszniki-Zdrój,50.409034,16.38581,http://kd.kiedyprzyjedzie.pl/35,1,,
1474649,,Duszniki-Zdrój,50.409034,16.38581,,0,1413129,I
1413130,36,Dzierżoniów Śląski,50.724358,16.640728,http://kd.kiedyprzyjedzie.pl/36,1,,
1475231,,Dzierżoniów Śląski,50.724358,16.640728,,0,1413130,I
1474685,,Dzierżoniów Śląski,50.724358,16.640728,,0,1413130,II
1413131,9423,Forst (Lausitz),51.738914,14.63704,http://kd.kiedyprzyjedzie.pl/9423,1,,
1475038,,Forst (Lausitz),51.738914,14.63704,,0,1413131,
1413132,6113,Garbce,51.512559,16.890254,http://kd.kiedyprzyjedzie.pl/6113,1,,
1475198,,Garbce,51.512559,16.890254,,0,1413132,II
1474872,,Garbce,51.512559,16.890254,,0,1413132,I
1413133,9438,Gersdorf (b Görlitz),51.125147,14.854707,http://kd.kiedyprzyjedzie.pl/9438,1,,
1474619,,Gersdorf (b Görlitz),51.125147,14.854707,,0,1413133,
1413134,6115,Gierałtów,51.19205,15.299816,http://kd.kiedyprzyjedzie.pl/6115,1,,
1475138,,Gierałtów,51.19205,15.299816,,0,1413134,I
1413135,6116,Gierałtów Wykroty,51.216804,15.284533,http://kd.kiedyprzyjedzie.pl/6116,1,,
1475139,,Gierałtów Wykroty,51.216804,15.284533,,0,1413135,II
1536315,,Gierałtów Wykroty,51.216804,15.284533,,0,1413135,I
1413136,44,Głogów,51.669632,16.079897,http://kd.kiedyprzyjedzie.pl/44,1,,
1475056,,Głogów,51.669632,16.079897,,0,1413136,II
1474951,,Głogów,51.669632,16.079897,,0,1413136,I
1413137,6118,Głogów Huta,51.675298,15.992456,http://kd.kiedyprzyjedzie.pl/6118,1,,
1475077,,Głogów Huta,51.675298,15.992456,,0,1413137,I
1475244,,Głogów Huta,51.675298,15.992456,,0,1413137,II
1536306,,Głogów Huta,51.675298,15.992456,,0,1413137,
1413138,6532,Głogów Wróblin,51.68658,15.954603,http://kd.kiedyprzyjedzie.pl/6532,1,,
1475078,,Głogów Wróblin,51.68658,15.954603,,0,1413138,I
1536307,,Głogów Wróblin,51.68658,15.954603,,0,1413138,
1475243,,Głogów Wróblin,51.68658,15.954603,,0,1413138,II
1413139,6125,Głuszyca,50.687916,16.353927,http://kd.kiedyprzyjedzie.pl/6125,1,,
1474763,,Głuszyca,50.687916,16.353927,,0,1413139,II
1474815,,Głuszyca,50.687916,16.353927,,0,1413139,I
1413140,6126,Głuszyca Górna,50.672932,16.371589,http://kd.kiedyprzyjedzie.pl/6126,1,,
1474764,,Głuszyca Górna,50.672932,16.371589,,0,1413140,I
1474814,,Głuszyca Górna,50.672932,16.371589,,0,1413140,II
1413141,6128,Goczałków,51.008429,16.325327,http://kd.kiedyprzyjedzie.pl/6128,1,,
1474717,,Goczałków,51.008429,16.325327,,0,1413141,I
1474723,,Goczałków,51.008429,16.325327,,0,1413141,
1413147,6644,Góra Śląska,51.667503,16.535373,http://kd.kiedyprzyjedzie.pl/6644,1,,
1475245,,Góra Śląska,51.667503,16.535373,,0,1413147,
1413142,9427,Görlitz,51.146841,14.97833,http://kd.kiedyprzyjedzie.pl/9427,1,,
1474617,,Görlitz,51.146841,14.97833,,0,1413142,
1413143,9439,Görlitz-Rauschwalde,51.14914,14.936567,http://kd.kiedyprzyjedzie.pl/9439,1,,
1474618,,Görlitz-Rauschwalde,51.14914,14.936567,,0,1413143,
1413144,6131,Gorzanów,50.354398,16.640915,http://kd.kiedyprzyjedzie.pl/6131,1,,
1474881,,Gorzanów,50.354398,16.640915,,0,1413144,I
1413145,6132,Gorzelin,51.328511,16.18097,http://kd.kiedyprzyjedzie.pl/6132,1,,
1474960,,Gorzelin,51.328511,16.18097,,0,1413145,I
1475017,,Gorzelin,51.328511,16.18097,,0,1413145,
1413146,6133,Gorzuchów Kłodzki,50.48973,16.571795,http://kd.kiedyprzyjedzie.pl/6133,1,,
1474772,,Gorzuchów Kłodzki,50.48973,16.571795,,0,1413146,I
1413148,6138,Górzyniec,50.860331,15.567141,http://kd.kiedyprzyjedzie.pl/6138,1,,
1475156,,Górzyniec,50.860331,15.567141,,0,1413148,I
1413149,6140,Grabowno Wielkie,51.34322,17.403478,http://kd.kiedyprzyjedzie.pl/6140,1,,
1475090,,Grabowno Wielkie,51.34322,17.403478,,0,1413149,I
1475215,,Grabowno Wielkie,51.34322,17.403478,,0,1413149,II
1475226,,Grabowno Wielkie,51.34322,17.403478,,0,1413149,
1413150,6142,Grębocice,51.593359,16.185036,http://kd.kiedyprzyjedzie.pl/6142,1,,
1475009,,Grębocice,51.593359,16.185036,,0,1413150,
1474968,,Grębocice,51.593359,16.185036,,0,1413150,I
1474952,,Grębocice,51.593359,16.185036,,0,1413150,II
1413151,9440,Großharthau,51.10218,14.087659,http://kd.kiedyprzyjedzie.pl/9440,1,,
1474631,,Großharthau,51.10218,14.087659,,0,1413151,
1413152,6147,Gryfów Śląski,51.03395,15.428814,http://kd.kiedyprzyjedzie.pl/6147,1,,
1474978,,Gryfów Śląski,51.03395,15.428814,,0,1413152,I
1474932,,Gryfów Śląski,51.03395,15.428814,,0,1413152,II
1413153,9310,Harrachov,50.771509,15.393176,http://kd.kiedyprzyjedzie.pl/9310,1,,
1474611,,Harrachov,50.771509,15.393176,,0,1413153,
1413154,6149,Henryków,50.663241,17.030029,http://kd.kiedyprzyjedzie.pl/6149,1,,
1474852,,Henryków,50.663241,17.030029,,0,1413154,II
1474860,,Henryków,50.663241,17.030029,,0,1413154,I
1413155,6150,Imbramowice,50.96337,16.578141,http://kd.kiedyprzyjedzie.pl/6150,1,,
1475148,,Imbramowice,50.96337,16.578141,,0,1413155,I
1475163,,Imbramowice,50.96337,16.578141,,0,1413155,II
1475150,,Imbramowice,50.96337,16.578141,,0,1413155,
1413156,6574,Iwiny,51.054668,17.068813,http://kd.kiedyprzyjedzie.pl/6574,1,,
1474859,,Iwiny,51.054668,17.068813,,0,1413156,II
1475191,,Iwiny,51.054668,17.068813,,0,1413156,I
1413161,9335,Jablonecké Paseky,50.731541,15.190401,http://kd.kiedyprzyjedzie.pl/9335,1,,
1474598,,Jablonecké Paseky,50.731541,15.190401,,0,1413161,
1413157,9338,Jablonec nad Nisou,50.720967,15.1608,http://kd.kiedyprzyjedzie.pl/9338,1,,
1474594,,Jablonec nad Nisou,50.720967,15.1608,,0,1413157,
1413158,9337,Jablonec nad Nisou centrum,50.720864,15.173825,http://kd.kiedyprzyjedzie.pl/9337,1,,
1474595,,Jablonec nad Nisou centrum,50.720864,15.173825,,0,1413158,
1413159,9339,Jablonec nad Nisou dolní n.,50.726366,15.149277,http://kd.kiedyprzyjedzie.pl/9339,1,,
1474593,,Jablonec nad Nisou dolní n.,50.726366,15.149277,,0,1413159,
1413160,9336,Jablonec nad Nisou zastávka,50.72041,15.185412,http://kd.kiedyprzyjedzie.pl/9336,1,,
1474596,,Jablonec nad Nisou zastávka,50.72041,15.185412,,0,1413160,
1413162,6155,Janowice Wielkie,50.878507,15.918763,http://kd.kiedyprzyjedzie.pl/6155,1,,
1474756,,Janowice Wielkie,50.878507,15.918763,,0,1413162,I
1536281,,Janowice Wielkie,50.878507,15.918763,,0,1413162,
1474822,,Janowice Wielkie,50.878507,15.918763,,0,1413162,II
1413163,6160,Jaśkowice Legnickie,51.215107,16.31412,http://kd.kiedyprzyjedzie.pl/6160,1,,
1475000,,Jaśkowice Legnickie,51.215107,16.31412,,0,1413163,II
1474999,,Jaśkowice Legnickie,51.215107,16.31412,,0,1413163,I
1536322,,Jaśkowice Legnickie,51.215107,16.31412,,0,1413163,
1413164,6161,Jawor,51.055049,16.198447,http://kd.kiedyprzyjedzie.pl/6161,1,,
1475023,,Jawor,51.055049,16.198447,,0,1413164,I
1474715,,Jawor,51.055049,16.198447,,0,1413164,III
1474721,,Jawor,51.055049,16.198447,,0,1413164,
1413165,61,Jaworzyna Śląska,50.912468,16.428854,http://kd.kiedyprzyjedzie.pl/61,1,,
1474714,,Jaworzyna Śląska,50.912468,16.428854,,0,1413165,III
1474720,,Jaworzyna Śląska,50.912468,16.428854,,0,1413165,I
1474694,,Jaworzyna Śląska,50.912468,16.428854,,0,1413165,
1474691,,Jaworzyna Śląska,50.912468,16.428854,,0,1413165,II
1413166,62,Jedlina-Zdrój,50.711543,16.343018,http://kd.kiedyprzyjedzie.pl/62,1,,
1474817,,Jedlina-Zdrój,50.711543,16.343018,,0,1413166,II
1474972,,Jedlina-Zdrój,50.711543,16.343018,,0,1413166,
1474762,,Jedlina-Zdrój,50.711543,16.343018,,0,1413166,I
1413167,6162,Jedlina-Zdrój Borowa,50.729916,16.322194,http://kd.kiedyprzyjedzie.pl/6162,1,,
1474761,,Jedlina-Zdrój Borowa,50.729916,16.322194,,0,1413167,I
1474778,,Jedlina-Zdrój Borowa,50.729916,16.322194,,0,1413167,
1413168,6619,Jedlina-Zdrój Centrum,50.721132,16.344604,http://kd.kiedyprzyjedzie.pl/6619,1,,
1474802,,Jedlina-Zdrój Centrum,50.721132,16.344604,,0,1413168,I
1413180,6175,Jędrzychowice,51.174129,15.017733,http://kd.kiedyprzyjedzie.pl/6175,1,,
1474985,,Jędrzychowice,51.174129,15.017733,,0,1413180,I
1475187,,Jędrzychowice,51.174129,15.017733,,0,1413180,II
1413170,6227,Jelcz-Laskowice,51.037013,17.345413,http://kd.kiedyprzyjedzie.pl/6227,1,,
1474908,,Jelcz-Laskowice,51.037013,17.345413,,0,1413170,III
1413169,6163,Jelcz Miłoszyce,51.044568,17.3054,http://kd.kiedyprzyjedzie.pl/6163,1,,
1474907,,Jelcz Miłoszyce,51.044568,17.3054,,0,1413169,I
1413171,63,Jelenia Góra,50.90259,15.75599,http://kd.kiedyprzyjedzie.pl/63,1,,
1474925,,Jelenia Góra,50.90259,15.75599,,0,1413171,I
1474823,,Jelenia Góra,50.90259,15.75599,,0,1413171,III
1474755,,Jelenia Góra,50.90259,15.75599,,0,1413171,II
1536280,,Jelenia Góra,50.90259,15.75599,,0,1413171,
1475162,,Jelenia Góra,50.90259,15.75599,,0,1413171,IV
1413172,6166,Jelenia Góra Cieplice,50.869743,15.685244,http://kd.kiedyprzyjedzie.pl/6166,1,,
1475119,,Jelenia Góra Cieplice,50.869743,15.685244,,0,1413172,I
1413173,6164,Jelenia Góra Orle,50.863984,15.657366,http://kd.kiedyprzyjedzie.pl/6164,1,,
1475158,,Jelenia Góra Orle,50.863984,15.657366,,0,1413173,I
1413174,7579,Jelenia Góra Przemysłowa,50.887669,15.705179,http://kd.kiedyprzyjedzie.pl/7579,1,,
1475159,,Jelenia Góra Przemysłowa,50.887669,15.705179,,0,1413174,I
1413175,6167,Jelenia Góra Sobieszów,50.851787,15.645408,http://kd.kiedyprzyjedzie.pl/6167,1,,
1475120,,Jelenia Góra Sobieszów,50.851787,15.645408,,0,1413175,I
1475165,,Jelenia Góra Sobieszów,50.851787,15.645408,,0,1413175,II
1413176,7578,Jelenia Góra Zabobrze,50.9099,15.743105,http://kd.kiedyprzyjedzie.pl/7578,1,,
1475118,,Jelenia Góra Zabobrze,50.9099,15.743105,,0,1413176,I
1474926,,Jelenia Góra Zabobrze,50.9099,15.743105,,0,1413176,II
1413177,6168,Jelenia Góra Zachodnia,50.900598,15.719448,http://kd.kiedyprzyjedzie.pl/6168,1,,
1475160,,Jelenia Góra Zachodnia,50.900598,15.719448,,0,1413177,I
1413178,6172,Jerzmanki,51.127743,15.060941,http://kd.kiedyprzyjedzie.pl/6172,1,,
1474944,,Jerzmanki,51.127743,15.060941,,0,1413178,II
1413179,6173,Jezierzany,51.235647,16.097664,http://kd.kiedyprzyjedzie.pl/6173,1,,
1474846,,Jezierzany,51.235647,16.097664,,0,1413179,II
1474837,,Jezierzany,51.235647,16.097664,,0,1413179,I
1413181,6618,Jugowice,50.732148,16.405378,http://kd.kiedyprzyjedzie.pl/6618,1,,
1474801,,Jugowice,50.732148,16.405378,,0,1413181,I
1413182,67,Kamieniec Ząbkowicki,50.536182,16.899563,http://kd.kiedyprzyjedzie.pl/67,1,,
1474850,,Kamieniec Ząbkowicki,50.536182,16.899563,,0,1413182,II
1475233,,Kamieniec Ząbkowicki,50.536182,16.899563,,0,1413182,IV
1474643,,Kamieniec Ząbkowicki,50.536182,16.899563,,0,1413182,I
1413183,6182,Kamienna Góra,50.785557,16.023374,http://kd.kiedyprzyjedzie.pl/6182,1,,
1474832,,Kamienna Góra,50.785557,16.023374,,0,1413183,I
1474835,,Kamienna Góra,50.785557,16.023374,,0,1413183,
1413184,6187,Kąty Wrocławskie,51.037998,16.749979,http://kd.kiedyprzyjedzie.pl/6187,1,,
1474818,,Kąty Wrocławskie,51.037998,16.749979,,0,1413184,I
1474795,,Kąty Wrocławskie,51.037998,16.749979,,0,1413184,II
1474803,,Kąty Wrocławskie,51.037998,16.749979,,0,1413184,
1413185,75,Kłodzko Główne,50.451326,16.656778,http://kd.kiedyprzyjedzie.pl/75,1,,
1474810,,Kłodzko Główne,50.451326,16.656778,,0,1413185,III
1474645,,Kłodzko Główne,50.451326,16.656778,,0,1413185,I
1474991,,Kłodzko Główne,50.451326,16.656778,,0,1413185,
1413186,6190,Kłodzko Książek,50.415861,16.639971,http://kd.kiedyprzyjedzie.pl/6190,1,,
1474749,,Kłodzko Książek,50.415861,16.639971,,0,1413186,I
1413187,6191,Kłodzko Miasto,50.435785,16.658613,http://kd.kiedyprzyjedzie.pl/6191,1,,
1474646,,Kłodzko Miasto,50.435785,16.658613,,0,1413187,I
1474747,,Kłodzko Miasto,50.435785,16.658613,,0,1413187,
1474774,,Kłodzko Miasto,50.435785,16.658613,,0,1413187,II
1413188,6192,Kłodzko Zagórze,50.415089,16.61464,http://kd.kiedyprzyjedzie.pl/6192,1,,
1474750,,Kłodzko Zagórze,50.415089,16.61464,,0,1413188,I
1413189,904,Kobierzyce,50.97427,16.926523,http://kd.kiedyprzyjedzie.pl/904,1,,
1474663,,Kobierzyce,50.97427,16.926523,,0,1413189,I
1474656,,Kobierzyce,50.97427,16.926523,,0,1413189,
1413190,9311,Kořenov,50.770125,15.365721,http://kd.kiedyprzyjedzie.pl/9311,1,,
1474610,,Kořenov,50.770125,15.365721,,0,1413190,
1413191,9312,Kořenov zastávka,50.762375,15.346924,http://kd.kiedyprzyjedzie.pl/9312,1,,
1474615,,Kořenov zastávka,50.762375,15.346924,,0,1413191,
1413192,6196,Korzeńsko,51.544601,16.872235,http://kd.kiedyprzyjedzie.pl/6196,1,,
1474873,,Korzeńsko,51.544601,16.872235,,0,1413192,II
1475197,,Korzeńsko,51.544601,16.872235,,0,1413192,I
1413193,6208,Koźlice,51.451049,16.232957,http://kd.kiedyprzyjedzie.pl/6208,1,,
1474956,,Koźlice,51.451049,16.232957,,0,1413193,II
1474966,,Koźlice,51.451049,16.232957,,0,1413193,I
1475013,,Koźlice,51.451049,16.232957,,0,1413193,
1413194,9380,Kralovec,50.67322,15.970622,http://kd.kiedyprzyjedzie.pl/9380,1,,
1474829,,Kralovec,50.67322,15.970622,,0,1413194,
1413195,9382,Křenov,50.638204,15.935689,http://kd.kiedyprzyjedzie.pl/9382,1,,
1474827,,Křenov,50.638204,15.935689,,0,1413195,
1413197,6215,Krośnice,51.471194,17.373897,http://kd.kiedyprzyjedzie.pl/6215,1,,
1475092,,Krośnice,51.471194,17.373897,,0,1413197,I
1475227,,Krośnice,51.471194,17.373897,,0,1413197,
1413196,6214,Krosnowice Kłodzkie,50.392204,16.636833,http://kd.kiedyprzyjedzie.pl/6214,1,,
1474882,,Krosnowice Kłodzkie,50.392204,16.636833,,0,1413196,I
1474746,,Krosnowice Kłodzkie,50.392204,16.636833,,0,1413196,
1413198,88,Krotoszyn,51.701406,17.425939,http://kd.kiedyprzyjedzie.pl/88,1,,
1475097,,Krotoszyn,51.701406,17.425939,,0,1413198,II
1413199,6217,Krzepów,51.645204,16.132983,http://kd.kiedyprzyjedzie.pl/6217,1,,
1475076,,Krzepów,51.645204,16.132983,,0,1413199,I
1536305,,Krzepów,51.645204,16.132983,,0,1413199,
1413200,6221,Krzyżowa,50.79392,16.530135,http://kd.kiedyprzyjedzie.pl/6221,1,,
1474695,,Krzyżowa,50.79392,16.530135,,0,1413200,I
1413201,6222,Księginice,51.242231,16.763806,http://kd.kiedyprzyjedzie.pl/6222,1,,
1475069,,Księginice,51.242231,16.763806,,0,1413201,I
1474787,,Księginice,51.242231,16.763806,,0,1413201,II
1536297,,Księginice,51.242231,16.763806,,0,1413201,
1413202,9441,Kubschütz,51.165612,14.509431,http://kd.kiedyprzyjedzie.pl/9441,1,,
1474625,,Kubschütz,51.165612,14.509431,,0,1413202,
1413203,91,Kudowa-Zdrój,50.429799,16.244104,http://kd.kiedyprzyjedzie.pl/91,1,,
1474650,,Kudowa-Zdrój,50.429799,16.244104,,0,1413203,I
1536278,,Kudowa-Zdrój,50.429799,16.244104,,0,1413203,II
1413204,6225,Kulin Kłodzki,50.419368,16.325498,http://kd.kiedyprzyjedzie.pl/6225,1,,
1474753,,Kulin Kłodzki,50.419368,16.325498,,0,1413204,I
1413205,6226,Kwieciszowice,50.924196,15.503632,http://kd.kiedyprzyjedzie.pl/6226,1,,
1474929,,Kwieciszowice,50.924196,15.503632,,0,1413205,I
1413208,6231,Lądek Stójków,50.327544,16.875966,http://kd.kiedyprzyjedzie.pl/6231,1,,
1474740,,Lądek Stójków,50.327544,16.875966,,0,1413208,
1413209,98,Lądek Zdrój,50.342422,16.879249,http://kd.kiedyprzyjedzie.pl/98,1,,
1474741,,Lądek Zdrój,50.342422,16.879249,,0,1413209,
1413206,9442,Langebrück (Sachs),51.126884,13.840639,http://kd.kiedyprzyjedzie.pl/9442,1,,
1474634,,Langebrück (Sachs),51.126884,13.840639,,0,1413206,
1413207,6230,Lasów,51.225197,15.035114,http://kd.kiedyprzyjedzie.pl/6230,1,,
1475189,,Lasów,51.225197,15.035114,,0,1413207,I
1475188,,Lasów,51.225197,15.035114,,0,1413207,II
1413228,6248,Ławica,50.477565,16.670747,http://kd.kiedyprzyjedzie.pl/6248,1,,
1475208,,Ławica,50.477565,16.670747,,0,1413228,II
1474847,,Ławica,50.477565,16.670747,,0,1413228,I
1413210,99,Legnica,51.214097,16.16967,http://kd.kiedyprzyjedzie.pl/99,1,,
1474836,,Legnica,51.214097,16.16967,,0,1413210,V
1474915,,Legnica,51.214097,16.16967,,0,1413210,I
1474947,,Legnica,51.214097,16.16967,,0,1413210,II
1474843,,Legnica,51.214097,16.16967,,0,1413210,
1474844,,Legnica,51.214097,16.16967,,0,1413210,Ia
1413211,6232,Legnica Piekary,51.201674,16.198056,http://kd.kiedyprzyjedzie.pl/6232,1,,
1474909,,Legnica Piekary,51.201674,16.198056,,0,1413211,I
1413212,6613,Legnica Strefa,51.165275,16.185372,http://kd.kiedyprzyjedzie.pl/6613,1,,
1474910,,Legnica Strefa,51.165275,16.185372,,0,1413212,I
1413213,7241,Leszno Górne,51.466872,15.616046,http://kd.kiedyprzyjedzie.pl/7241,1,,
1475029,,Leszno Górne,51.466872,15.616046,,0,1413213,I
1475239,,Leszno Górne,51.466872,15.616046,,0,1413213,II
1413214,6236,Lewin Kłodzki,50.40553,16.274686,http://kd.kiedyprzyjedzie.pl/6236,1,,
1474754,,Lewin Kłodzki,50.40553,16.274686,,0,1413214,I
1413215,9383,Libeč,50.596107,15.94616,http://kd.kiedyprzyjedzie.pl/9383,1,,
1474826,,Libeč,50.596107,15.94616,,0,1413215,
1413216,9344,Liberec,50.761303,15.046312,http://kd.kiedyprzyjedzie.pl/9344,1,,
1474588,,Liberec,50.761303,15.046312,,0,1413216,
1413217,9343,Liberec-Rochlice,50.747253,15.06173,http://kd.kiedyprzyjedzie.pl/9343,1,,
1474589,,Liberec-Rochlice,50.747253,15.06173,,0,1413217,
1413218,9347,Lichkov,50.097276,16.658984,http://kd.kiedyprzyjedzie.pl/9347,1,,
1474888,,Lichkov,50.097276,16.658984,,0,1413218,
1413219,7249,Lipinki Łużyckie,51.648897,15.009829,http://kd.kiedyprzyjedzie.pl/7249,1,,
1475042,,Lipinki Łużyckie,51.648897,15.009829,,0,1413219,
1475034,,Lipinki Łużyckie,51.648897,15.009829,,0,1413219,II
1413220,9443,Löbau (Sachs),51.099377,14.671951,http://kd.kiedyprzyjedzie.pl/9443,1,,
1474622,,Löbau (Sachs),51.099377,14.671951,,0,1413220,
1413229,6256,Łososiowice,51.297059,16.675084,http://kd.kiedyprzyjedzie.pl/6256,1,,
1474785,,Łososiowice,51.297059,16.675084,,0,1413229,II
1475070,,Łososiowice,51.297059,16.675084,,0,1413229,I
1536299,,Łososiowice,51.297059,16.675084,,0,1413229,
1413221,6616,Lubachów,50.77432,16.434485,http://kd.kiedyprzyjedzie.pl/6616,1,,
1474799,,Lubachów,50.77432,16.434485,,0,1413221,I
1413222,102,Lubań Śląski,51.11136,15.29354,http://kd.kiedyprzyjedzie.pl/102,1,,
1474940,,Lubań Śląski,51.11136,15.29354,,0,1413222,I
1474980,,Lubań Śląski,51.11136,15.29354,,0,1413222,V
1474979,,Lubań Śląski,51.11136,15.29354,,0,1413222,IV
1413223,6241,Lubawka,50.706383,16.003268,http://kd.kiedyprzyjedzie.pl/6241,1,,
1474830,,Lubawka,50.706383,16.003268,,0,1413223,II
1474833,,Lubawka,50.706383,16.003268,,0,1413223,
1413224,279,Lubin,51.396053,16.193544,http://kd.kiedyprzyjedzie.pl/279,1,,
1474948,,Lubin,51.396053,16.193544,,0,1413224,I
1474958,,Lubin,51.396053,16.193544,,0,1413224,II
1413225,7576,Lubin Stadion,51.408309,16.199145,http://kd.kiedyprzyjedzie.pl/7576,1,,
1474957,,Lubin Stadion,51.408309,16.199145,,0,1413225,I
1475014,,Lubin Stadion,51.408309,16.199145,,0,1413225,
1413226,9334,Lučany nad Nisou,50.73952,15.225355,http://kd.kiedyprzyjedzie.pl/9334,1,,
1474599,,Lučany nad Nisou,50.73952,15.225355,,0,1413226,
1413227,6244,Ludwikowice Kłodzkie,50.619485,16.481796,http://kd.kiedyprzyjedzie.pl/6244,1,,
1474767,,Ludwikowice Kłodzkie,50.619485,16.481796,,0,1413227,I
1413230,6259,Malczyce,51.215759,16.486136,http://kd.kiedyprzyjedzie.pl/6259,1,,
1474997,,Malczyce,51.215759,16.486136,,0,1413230,I
1536324,,Malczyce,51.215759,16.486136,,0,1413230,
1475002,,Malczyce,51.215759,16.486136,,0,1413230,II
1413231,7273,Małomice,51.549651,15.446928,http://kd.kiedyprzyjedzie.pl/7273,1,,
1475030,,Małomice,51.549651,15.446928,,0,1413231,I
1475055,,Małomice,51.549651,15.446928,,0,1413231,II
1413232,6260,Małowice Wołowskie,51.404417,16.471413,http://kd.kiedyprzyjedzie.pl/6260,1,,
1536302,,Małowice Wołowskie,51.404417,16.471413,,0,1413232,
1475184,,Małowice Wołowskie,51.404417,16.471413,,0,1413232,II
1475072,,Małowice Wołowskie,51.404417,16.471413,,0,1413232,I
1413233,6263,Marcinowice Świdnickie,50.876844,16.586846,http://kd.kiedyprzyjedzie.pl/6263,1,,
1474670,,Marcinowice Świdnickie,50.876844,16.586846,,0,1413233,I
1474675,,Marcinowice Świdnickie,50.876844,16.586846,,0,1413233,
1413234,905,Marciszów,50.851499,16.007603,http://kd.kiedyprzyjedzie.pl/905,1,,
1474757,,Marciszów,50.851499,16.007603,,0,1413234,III
1413235,9388,Mezimesti,50.626561,16.243017,http://kd.kiedyprzyjedzie.pl/9388,1,,
1475111,,Mezimesti,50.626561,16.243017,,0,1413235,
1413238,122,Międzylesie,50.144089,16.654959,http://kd.kiedyprzyjedzie.pl/122,1,,
1474875,,Międzylesie,50.144089,16.654959,,0,1413238,I
1474889,,Międzylesie,50.144089,16.654959,,0,1413238,II
1413239,124,Międzyzdroje,53.924245,14.455085,http://kd.kiedyprzyjedzie.pl/124,1,,
1475103,,Międzyzdroje,53.924245,14.455085,,0,1413239,I
1475250,,Międzyzdroje,53.924245,14.455085,,0,1413239,II
1413240,6268,Miękinia,51.188258,16.739599,http://kd.kiedyprzyjedzie.pl/6268,1,,
1474995,,Miękinia,51.188258,16.739599,,0,1413240,I
1475004,,Miękinia,51.188258,16.739599,,0,1413240,II
1536326,,Miękinia,51.188258,16.739599,,0,1413240,
1413236,6266,Mieroszów,50.669307,16.193351,http://kd.kiedyprzyjedzie.pl/6266,1,,
1536267,,Mieroszów,50.669307,16.193351,,0,1413236,I
1413237,6267,Mietków,50.98513,16.655947,http://kd.kiedyprzyjedzie.pl/6267,1,,
1475144,,Mietków,50.98513,16.655947,,0,1413237,II
1475146,,Mietków,50.98513,16.655947,,0,1413237,I
1475145,,Mietków,50.98513,16.655947,,0,1413237,
1413241,6269,Mikułowa,51.095151,15.107872,http://kd.kiedyprzyjedzie.pl/6269,1,,
1474943,,Mikułowa,51.095151,15.107872,,0,1413241,I
1413242,6270,Milicz,51.527373,17.294983,http://kd.kiedyprzyjedzie.pl/6270,1,,
1475094,,Milicz,51.527373,17.294983,,0,1413242,I
1475228,,Milicz,51.527373,17.294983,,0,1413242,
1413243,6271,Miłkowice,51.255565,16.054625,http://kd.kiedyprzyjedzie.pl/6271,1,,
1474845,,Miłkowice,51.255565,16.054625,,0,1413243,IV
1475026,,Miłkowice,51.255565,16.054625,,0,1413243,I
1474838,,Miłkowice,51.255565,16.054625,,0,1413243,III
1475240,,Miłkowice,51.255565,16.054625,,0,1413243,II
1413244,6674,Mirków,51.164949,17.164351,http://kd.kiedyprzyjedzie.pl/6674,1,,
1475084,,Mirków,51.164949,17.164351,,0,1413244,II
1475213,,Mirków,51.164949,17.164351,,0,1413244,I
1413245,6274,Mirsk,50.97318,15.380346,http://kd.kiedyprzyjedzie.pl/6274,1,,
1474934,,Mirsk,50.97318,15.380346,,0,1413245,I
1413246,6275,Młyńsko,50.989545,15.450399,http://kd.kiedyprzyjedzie.pl/6275,1,,
1474931,,Młyńsko,50.989545,15.450399,,0,1413246,I
1413247,6276,Modła,51.375628,15.813586,http://kd.kiedyprzyjedzie.pl/6276,1,,
1475027,,Modła,51.375628,15.813586,,0,1413247,I
1413248,7577,Mokronos Górny,51.078847,16.908683,http://kd.kiedyprzyjedzie.pl/7577,1,,
1474901,,Mokronos Górny,51.078847,16.908683,,0,1413248,II
1474893,,Mokronos Górny,51.078847,16.908683,,0,1413248,I
1474896,,Mokronos Górny,51.078847,16.908683,,0,1413248,
1413249,6280,Mościsko Dzierżoniowskie,50.772124,16.580238,http://kd.kiedyprzyjedzie.pl/6280,1,,
1474684,,Mościsko Dzierżoniowskie,50.772124,16.580238,,0,1413249,I
1475025,,Mościsko Dzierżoniowskie,50.772124,16.580238,,0,1413249,II
1413250,6281,Mroczkowice,50.947491,15.361598,http://kd.kiedyprzyjedzie.pl/6281,1,,
1474935,,Mroczkowice,50.947491,15.361598,,0,1413250,I
1413251,6282,Mrozów,51.183662,16.793938,http://kd.kiedyprzyjedzie.pl/6282,1,,
1474994,,Mrozów,51.183662,16.793938,,0,1413251,I
1475005,,Mrozów,51.183662,16.793938,,0,1413251,II
1536327,,Mrozów,51.183662,16.793938,,0,1413251,
1413252,6575,Nadolice Małe,51.081794,17.219462,http://kd.kiedyprzyjedzie.pl/6575,1,,
1475174,,Nadolice Małe,51.081794,17.219462,,0,1413252,I
1413253,6288,Nadolice Wielkie,51.07986,17.250828,http://kd.kiedyprzyjedzie.pl/6288,1,,
1475175,,Nadolice Wielkie,51.07986,17.250828,,0,1413253,I
1473564,7301,Niedoradz,51.865418,15.664353,http://kd.kiedyprzyjedzie.pl/7301,1,,
1536310,,Niedoradz,51.865418,15.664353,,0,1473564,
1536321,,Niedoradz,51.865418,15.664353,,0,1473564,II
1536289,,Niedoradz,51.865418,15.664353,,0,1473564,I
1413254,9399,Nová Ves nad Nisou,50.723554,15.194252,http://kd.kiedyprzyjedzie.pl/9399,1,,
1474597,,Nová Ves nad Nisou,50.723554,15.194252,,0,1413254,
1413255,132,Nowa Ruda,50.577334,16.496848,http://kd.kiedyprzyjedzie.pl/132,1,,
1474770,,Nowa Ruda,50.577334,16.496848,,0,1413255,I
1474811,,Nowa Ruda,50.577334,16.496848,,0,1413255,II
1413256,6296,Nowa Ruda Przedmieście,50.588571,16.516863,http://kd.kiedyprzyjedzie.pl/6296,1,,
1474769,,Nowa Ruda Przedmieście,50.588571,16.516863,,0,1413256,I
1413257,6544,Nowa Ruda Zdrojowisko,50.612045,16.509514,http://kd.kiedyprzyjedzie.pl/6544,1,,
1474768,,Nowa Ruda Zdrojowisko,50.612045,16.509514,,0,1413257,I
1413258,133,Nowa Sól,51.798692,15.708974,http://kd.kiedyprzyjedzie.pl/133,1,,
1475081,,Nowa Sól,51.798692,15.708974,,0,1413258,I
1475060,,Nowa Sól,51.798692,15.708974,,0,1413258,
1475058,,Nowa Sól,51.798692,15.708974,,0,1413258,II
1413259,6305,Oborniki Śląskie,51.299605,16.907332,http://kd.kiedyprzyjedzie.pl/6305,1,,
1474868,,Oborniki Śląskie,51.299605,16.907332,,0,1413259,I
1413260,6306,Okmiany,51.270932,15.778626,http://kd.kiedyprzyjedzie.pl/6306,1,,
1475129,,Okmiany,51.270932,15.778626,,0,1413260,I
1475142,,Okmiany,51.270932,15.778626,,0,1413260,II
1413264,6315,Ołdrzychowice Kłodzkie,50.367381,16.707201,http://kd.kiedyprzyjedzie.pl/6315,1,,
1474744,,Ołdrzychowice Kłodzkie,50.367381,16.707201,,0,1413264,
1413261,138,Oleśnica,51.200627,17.386427,http://kd.kiedyprzyjedzie.pl/138,1,,
1475020,,Oleśnica,51.200627,17.386427,,0,1413261,
1475210,,Oleśnica,51.200627,17.386427,,0,1413261,III
1475087,,Oleśnica,51.200627,17.386427,,0,1413261,II
1413262,6311,Oleśnica Rataje,51.216512,17.364624,http://kd.kiedyprzyjedzie.pl/6311,1,,
1475022,,Oleśnica Rataje,51.216512,17.364624,,0,1413262,
1475099,,Oleśnica Rataje,51.216512,17.364624,,0,1413262,II
1475088,,Oleśnica Rataje,51.216512,17.364624,,0,1413262,I
1413263,6313,Olszyna Lubańska,51.069725,15.380647,http://kd.kiedyprzyjedzie.pl/6313,1,,
1474939,,Olszyna Lubańska,51.069725,15.380647,,0,1413263,I
1413265,6212,Orłowice,50.931198,15.351921,http://kd.kiedyprzyjedzie.pl/6212,1,,
1474936,,Orłowice,50.931198,15.351921,,0,1413265,I
1413266,6321,Orzeszków,51.393882,16.50824,http://kd.kiedyprzyjedzie.pl/6321,1,,
1475071,,Orzeszków,51.393882,16.50824,,0,1413266,I
1475185,,Orzeszków,51.393882,16.50824,,0,1413266,II
1536301,,Orzeszków,51.393882,16.50824,,0,1413266,
1413267,6322,Osetnica,51.261816,15.847333,http://kd.kiedyprzyjedzie.pl/6322,1,,
1475143,,Osetnica,51.261816,15.847333,,0,1413267,II
1475128,,Osetnica,51.261816,15.847333,,0,1413267,I
1413268,6324,Osola,51.338311,16.865642,http://kd.kiedyprzyjedzie.pl/6324,1,,
1475201,,Osola,51.338311,16.865642,,0,1413268,II
1474869,,Osola,51.338311,16.865642,,0,1413268,I
1413269,8267,Parłówko,53.845682,14.749178,http://kd.kiedyprzyjedzie.pl/8267,1,,
1475102,,Parłówko,53.845682,14.749178,,0,1413269,I
1475251,,Parłówko,53.845682,14.749178,,0,1413269,II
1413270,6536,Pasikurowice,51.20894,17.109658,http://kd.kiedyprzyjedzie.pl/6536,1,,
1474709,,Pasikurowice,51.20894,17.109658,,0,1413270,I
1474734,,Pasikurowice,51.20894,17.109658,,0,1413270,
1413271,6338,Pęgów,51.247143,16.92715,http://kd.kiedyprzyjedzie.pl/6338,1,,
1475202,,Pęgów,51.247143,16.92715,,0,1413271,II
1474867,,Pęgów,51.247143,16.92715,,0,1413271,I
1413272,6339,Piechowice,50.851705,15.59149,http://kd.kiedyprzyjedzie.pl/6339,1,,
1475121,,Piechowice,50.851705,15.59149,,0,1413272,I
1475161,,Piechowice,50.851705,15.59149,,0,1413272,II
1536314,,Piechowice,50.851705,15.59149,,0,1413272,
1413273,6340,Piechowice Dolne,50.850385,15.61687,http://kd.kiedyprzyjedzie.pl/6340,1,,
1475157,,Piechowice Dolne,50.850385,15.61687,,0,1413273,I
1413274,6343,Pieńsk,51.245225,15.046882,http://kd.kiedyprzyjedzie.pl/6343,1,,
1475135,,Pieńsk,51.245225,15.046882,,0,1413274,II
1474984,,Pieńsk,51.245225,15.046882,,0,1413274,I
1413275,7417,Pierwoszów Miłocin,51.255242,17.098961,http://kd.kiedyprzyjedzie.pl/7417,1,,
1474711,,Pierwoszów Miłocin,51.255242,17.098961,,0,1413275,I
1474736,,Pierwoszów Miłocin,51.255242,17.098961,,0,1413275,
1413276,6349,Piława Górna,50.678765,16.773261,http://kd.kiedyprzyjedzie.pl/6349,1,,
1475230,,Piława Górna,50.678765,16.773261,,0,1413276,II
1413277,6444,Polana Jakuszycka,50.814623,15.42952,http://kd.kiedyprzyjedzie.pl/6444,1,,
1474612,,Polana Jakuszycka,50.814623,15.42952,,0,1413277,I
1413278,157,Polanica-Zdrój,50.397587,16.514401,http://kd.kiedyprzyjedzie.pl/157,1,,
1474752,,Polanica-Zdrój,50.397587,16.514401,,0,1413278,I
1474647,,Polanica-Zdrój,50.397587,16.514401,,0,1413278,II
1413279,9444,Pommritz,51.159099,14.574663,http://kd.kiedyprzyjedzie.pl/9444,1,,
1474624,,Pommritz,51.159099,14.574663,,0,1413279,
1413280,6361,Poniatowice,51.241872,17.543874,http://kd.kiedyprzyjedzie.pl/6361,1,,
1474975,,Poniatowice,51.241872,17.543874,,0,1413280,
1413281,9340,Proseč nad Nisou,50.728323,15.115728,http://kd.kiedyprzyjedzie.pl/9340,1,,
1474592,,Proseč nad Nisou,50.728323,15.115728,,0,1413281,
1413282,6365,Proszówka,51.009024,15.423156,http://kd.kiedyprzyjedzie.pl/6365,1,,
1474933,,Proszówka,51.009024,15.423156,,0,1413282,I
1413283,6367,Przedmoście Święte,51.190497,16.664605,http://kd.kiedyprzyjedzie.pl/6367,1,,
1474996,,Przedmoście Święte,51.190497,16.664605,,0,1413283,I
1475003,,Przedmoście Święte,51.190497,16.664605,,0,1413283,II
1536325,,Przedmoście Święte,51.190497,16.664605,,0,1413283,
1413284,6373,Przybyłowice,51.125139,16.158692,http://kd.kiedyprzyjedzie.pl/6373,1,,
1475024,,Przybyłowice,51.125139,16.158692,,0,1413284,II
1474911,,Przybyłowice,51.125139,16.158692,,0,1413284,I
1413285,6375,Pszenno,50.856029,16.530219,http://kd.kiedyprzyjedzie.pl/6375,1,,
1474671,,Pszenno,50.856029,16.530219,,0,1413285,I
1474676,,Pszenno,50.856029,16.530219,,0,1413285,
1413286,6377,Pustków Żurawski,50.954151,16.857297,http://kd.kiedyprzyjedzie.pl/6377,1,,
1474665,,Pustków Żurawski,50.954151,16.857297,,0,1413286,I
1474658,,Pustków Żurawski,50.954151,16.857297,,0,1413286,
1413287,9445,Radeberg,51.11161,13.913251,http://kd.kiedyprzyjedzie.pl/9445,1,,
1474633,,Radeberg,51.11161,13.913251,,0,1413287,
1413288,6379,Radochów,50.339694,16.817193,http://kd.kiedyprzyjedzie.pl/6379,1,,
1474742,,Radochów,50.339694,16.817193,,0,1413288,
1413289,5523,Ramiszów,51.193196,17.098296,http://kd.kiedyprzyjedzie.pl/5523,1,,
1474708,,Ramiszów,51.193196,17.098296,,0,1413289,I
1474733,,Ramiszów,51.193196,17.098296,,0,1413289,
1413290,6383,Raszówka,51.302214,16.181729,http://kd.kiedyprzyjedzie.pl/6383,1,,
1475018,,Raszówka,51.302214,16.181729,,0,1413290,
1474961,,Raszówka,51.302214,16.181729,,0,1413290,I
1413291,171,Rawicz,51.609244,16.839439,http://kd.kiedyprzyjedzie.pl/171,1,,
1475249,,Rawicz,51.609244,16.839439,,0,1413291,
1474874,,Rawicz,51.609244,16.839439,,0,1413291,II
1474891,,Rawicz,51.609244,16.839439,,0,1413291,I
1413293,6385,Rębiszów,50.948228,15.456076,http://kd.kiedyprzyjedzie.pl/6385,1,,
1474930,,Rębiszów,50.948228,15.456076,,0,1413293,II
1413292,9446,Reichenbach (Oberlausitz),51.135705,14.795527,http://kd.kiedyprzyjedzie.pl/9446,1,,
1474620,,Reichenbach (Oberlausitz),51.135705,14.795527,,0,1413292,
1413295,6388,Rogów Sobócki,50.934142,16.75913,http://kd.kiedyprzyjedzie.pl/6388,1,,
1474666,,Rogów Sobócki,50.934142,16.75913,,0,1413295,II
1474659,,Rogów Sobócki,50.934142,16.75913,,0,1413295,
1413294,6387,Rogoźnica,51.014612,16.301701,http://kd.kiedyprzyjedzie.pl/6387,1,,
1474716,,Rogoźnica,51.014612,16.301701,,0,1413294,II
1474722,,Rogoźnica,51.014612,16.301701,,0,1413294,
1413296,6389,Rokitki,51.335419,15.893242,http://kd.kiedyprzyjedzie.pl/6389,1,,
1474841,,Rokitki,51.335419,15.893242,,0,1413296,II
1475039,,Rokitki,51.335419,15.893242,,0,1413296,I
1413297,6392,Roztoki Bystrzyckie,50.187657,16.66571,http://kd.kiedyprzyjedzie.pl/6392,1,,
1474876,,Roztoki Bystrzyckie,50.187657,16.66571,,0,1413297,I
1413298,176,Rudna Gwizdanów,51.529325,16.280866,http://kd.kiedyprzyjedzie.pl/176,1,,
1474967,,Rudna Gwizdanów,51.529325,16.280866,,0,1413298,II
1474953,,Rudna Gwizdanów,51.529325,16.280866,,0,1413298,I
1475010,,Rudna Gwizdanów,51.529325,16.280866,,0,1413298,
1413299,6393,Rudna Miasto,51.505725,16.269564,http://kd.kiedyprzyjedzie.pl/6393,1,,
1474954,,Rudna Miasto,51.505725,16.269564,,0,1413299,I
1475075,,Rudna Miasto,51.505725,16.269564,,0,1413299,II
1475011,,Rudna Miasto,51.505725,16.269564,,0,1413299,
1413300,6395,Rybnica,50.910496,15.645859,http://kd.kiedyprzyjedzie.pl/6395,1,,
1474927,,Rybnica,50.910496,15.645859,,0,1413300,II
1475236,,Rybnica,50.910496,15.645859,,0,1413300,I
1413301,6396,Rynarcice,51.473047,16.227539,http://kd.kiedyprzyjedzie.pl/6396,1,,
1474955,,Rynarcice,51.473047,16.227539,,0,1413301,I
1475012,,Rynarcice,51.473047,16.227539,,0,1413301,
1413302,6397,Rzeszotary,51.25026,16.166162,http://kd.kiedyprzyjedzie.pl/6397,1,,
1474962,,Rzeszotary,51.25026,16.166162,,0,1413302,I
1475019,,Rzeszotary,51.25026,16.166162,,0,1413302,
1413303,6398,Sadowice Wrocławskie,51.056007,16.824689,http://kd.kiedyprzyjedzie.pl/6398,1,,
1474895,,Sadowice Wrocławskie,51.056007,16.824689,,0,1413303,II
1474899,,Sadowice Wrocławskie,51.056007,16.824689,,0,1413303,I
1474898,,Sadowice Wrocławskie,51.056007,16.824689,,0,1413303,
1413339,210,Ścinawa,51.409209,16.421422,http://kd.kiedyprzyjedzie.pl/210,1,,
1475073,,Ścinawa,51.409209,16.421422,,0,1413339,I
1475183,,Ścinawa,51.409209,16.421422,,0,1413339,II
1536303,,Ścinawa,51.409209,16.421422,,0,1413339,
1413340,6458,Ścinawka Średnia,50.526395,16.505233,http://kd.kiedyprzyjedzie.pl/6458,1,,
1474771,,Ścinawka Średnia,50.526395,16.505233,,0,1413340,II
1413305,6402,Sędzisław,50.813417,16.069857,http://kd.kiedyprzyjedzie.pl/6402,1,,
1474821,,Sędzisław,50.813417,16.069857,,0,1413305,II
1474758,,Sędzisław,50.813417,16.069857,,0,1413305,I
1474775,,Sędzisław,50.813417,16.069857,,0,1413305,
1413304,9447,Seitschen,51.153581,14.32498,http://kd.kiedyprzyjedzie.pl/9447,1,,
1474627,,Seitschen,51.153581,14.32498,,0,1413304,
1413306,6404,Siechnice,51.038254,17.142547,http://kd.kiedyprzyjedzie.pl/6404,1,,
1474904,,Siechnice,51.038254,17.142547,,0,1413306,I
1413307,6548,Siedlec Trzebnicki,51.233655,17.118864,http://kd.kiedyprzyjedzie.pl/6548,1,,
1474710,,Siedlec Trzebnicki,51.233655,17.118864,,0,1413307,I
1474735,,Siedlec Trzebnicki,51.233655,17.118864,,0,1413307,
1413308,7446,Sieniawa Żarska,51.636546,15.061469,http://kd.kiedyprzyjedzie.pl/7446,1,,
1475033,,Sieniawa Żarska,51.636546,15.061469,,0,1413308,I
1475041,,Sieniawa Żarska,51.636546,15.061469,,0,1413308,
1413309,6408,Skokowa,51.387049,16.848932,http://kd.kiedyprzyjedzie.pl/6408,1,,
1475200,,Skokowa,51.387049,16.848932,,0,1413309,I
1474870,,Skokowa,51.387049,16.848932,,0,1413309,II
1413310,6412,Smardzów Wrocławski,51.030628,17.066139,http://kd.kiedyprzyjedzie.pl/6412,1,,
1475192,,Smardzów Wrocławski,51.030628,17.066139,,0,1413310,I
1474858,,Smardzów Wrocławski,51.030628,17.066139,,0,1413310,II
1413311,6413,Smolec,51.071592,16.881949,http://kd.kiedyprzyjedzie.pl/6413,1,,
1474894,,Smolec,51.071592,16.881949,,0,1413311,I
1474900,,Smolec,51.071592,16.881949,,0,1413311,II
1474897,,Smolec,51.071592,16.881949,,0,1413311,
1413312,9329,Smržovka,50.740199,15.243841,http://kd.kiedyprzyjedzie.pl/9329,1,,
1474600,,Smržovka,50.740199,15.243841,,0,1413312,
1413313,9326,Smržovka dolní nádraží,50.734801,15.280416,http://kd.kiedyprzyjedzie.pl/9326,1,,
1474603,,Smržovka dolní nádraží,50.734801,15.280416,,0,1413313,
1413315,9328,Smržovka-Luční,50.735025,15.24957,http://kd.kiedyprzyjedzie.pl/9328,1,,
1474601,,Smržovka-Luční,50.735025,15.24957,,0,1413315,
1413314,9327,Smržovka střed,50.731922,15.25486,http://kd.kiedyprzyjedzie.pl/9327,1,,
1474602,,Smržovka střed,50.731922,15.25486,,0,1413314,
1413316,6414,Sobótka,50.90535,16.740129,http://kd.kiedyprzyjedzie.pl/6414,1,,
1474667,,Sobótka,50.90535,16.740129,,0,1413316,I
1474660,,Sobótka,50.90535,16.740129,,0,1413316,
1413317,6415,Sobótka Zachodnia,50.907806,16.700733,http://kd.kiedyprzyjedzie.pl/6415,1,,
1474668,,Sobótka Zachodnia,50.907806,16.700733,,0,1413317,I
1474661,,Sobótka Zachodnia,50.907806,16.700733,,0,1413317,
1413341,6459,Środa Śląska,51.189431,16.606723,http://kd.kiedyprzyjedzie.pl/6459,1,,
1474949,,Środa Śląska,51.189431,16.606723,,0,1413341,II
1474965,,Środa Śląska,51.189431,16.606723,,0,1413341,I
1475048,,Środa Śląska,51.189431,16.606723,,0,1413341,
1413318,6421,Stanowice,50.930106,16.374626,http://kd.kiedyprzyjedzie.pl/6421,1,,
1474719,,Stanowice,50.930106,16.374626,,0,1413318,I
1474725,,Stanowice,50.930106,16.374626,,0,1413318,
1413319,6422,Stara Kamienica,50.91402,15.565918,http://kd.kiedyprzyjedzie.pl/6422,1,,
1474928,,Stara Kamienica,50.91402,15.565918,,0,1413319,I
1475237,,Stara Kamienica,50.91402,15.565918,,0,1413319,II
1413320,6424,Starczów,50.563354,16.94673,http://kd.kiedyprzyjedzie.pl/6424,1,,
1474883,,Starczów,50.563354,16.94673,,0,1413320,II
1474851,,Starczów,50.563354,16.94673,,0,1413320,I
1413321,6427,Stary Jawor,51.078997,16.161272,http://kd.kiedyprzyjedzie.pl/6427,1,,
1474912,,Stary Jawor,51.078997,16.161272,,0,1413321,I
1413322,6429,Stary Wielisław,50.405185,16.576269,http://kd.kiedyprzyjedzie.pl/6429,1,,
1474751,,Stary Wielisław,50.405185,16.576269,,0,1413322,I
1413323,7479,Stradomia,51.27304,17.623525,http://kd.kiedyprzyjedzie.pl/7479,1,,
1474976,,Stradomia,51.27304,17.623525,,0,1413323,
1413324,6431,Stronie Śląskie,50.30296,16.876106,http://kd.kiedyprzyjedzie.pl/6431,1,,
1474739,,Stronie Śląskie,50.30296,16.876106,,0,1413324,
1413325,6432,Strzegom,50.974562,16.358945,http://kd.kiedyprzyjedzie.pl/6432,1,,
1474724,,Strzegom,50.974562,16.358945,,0,1413325,
1474718,,Strzegom,50.974562,16.358945,,0,1413325,I
1413326,6436,Strzelin,50.784225,17.060255,http://kd.kiedyprzyjedzie.pl/6436,1,,
1474641,,Strzelin,50.784225,17.060255,,0,1413326,II
1474886,,Strzelin,50.784225,17.060255,,0,1413326,I
1413327,6561,Studzianka,51.427126,15.694989,http://kd.kiedyprzyjedzie.pl/6561,1,,
1536285,,Studzianka,51.427126,15.694989,,0,1413327,I
1413328,6440,Suszka,50.530811,16.82418,http://kd.kiedyprzyjedzie.pl/6440,1,,
1474885,,Suszka,50.530811,16.82418,,0,1413328,I
1475209,,Suszka,50.530811,16.82418,,0,1413328,II
1413342,213,Świdnica Miasto,50.841216,16.481506,http://kd.kiedyprzyjedzie.pl/213,1,,
1474688,,Świdnica Miasto,50.841216,16.481506,,0,1413342,II
1474673,,Świdnica Miasto,50.841216,16.481506,,0,1413342,I
1474678,,Świdnica Miasto,50.841216,16.481506,,0,1413342,
1413343,6461,Świdnica Przedmieście,50.835008,16.503955,http://kd.kiedyprzyjedzie.pl/6461,1,,
1474677,,Świdnica Przedmieście,50.835008,16.503955,,0,1413343,
1474672,,Świdnica Przedmieście,50.835008,16.503955,,0,1413343,I
1413344,6631,Świdnica Zawiszów,50.859921,16.479444,http://kd.kiedyprzyjedzie.pl/6631,1,,
1474697,,Świdnica Zawiszów,50.859921,16.479444,,0,1413344,II
1474689,,Świdnica Zawiszów,50.859921,16.479444,,0,1413344,I
1474692,,Świdnica Zawiszów,50.859921,16.479444,,0,1413344,
1413345,6462,Świebodzice,50.860195,16.332842,http://kd.kiedyprzyjedzie.pl/6462,1,,
1474989,,Świebodzice,50.860195,16.332842,,0,1413345,I
1475126,,Świebodzice,50.860195,16.332842,,0,1413345,II
1475106,,Świebodzice,50.860195,16.332842,,0,1413345,
1413346,216,Świeradów-Zdrój,50.911413,15.343452,http://kd.kiedyprzyjedzie.pl/216,1,,
1474937,,Świeradów-Zdrój,50.911413,15.343452,,0,1413346,I
1413347,6464,Świerki Dolne,50.63237,16.432495,http://kd.kiedyprzyjedzie.pl/6464,1,,
1474812,,Świerki Dolne,50.63237,16.432495,,0,1413347,I
1474766,,Świerki Dolne,50.63237,16.432495,,0,1413347,II
1413348,217,Świnoujście,53.904554,14.266385,http://kd.kiedyprzyjedzie.pl/217,1,,
1475104,,Świnoujście,53.904554,14.266385,,0,1413348,
1413329,7488,Syców,51.303543,17.715809,http://kd.kiedyprzyjedzie.pl/7488,1,,
1474977,,Syców,51.303543,17.715809,,0,1413329,
1413330,200,Szczecin Dąbie,53.391347,14.670465,http://kd.kiedyprzyjedzie.pl/200,1,,
1536313,,Szczecin Dąbie,53.391347,14.670465,,0,1413330,II
1536330,,Szczecin Dąbie,53.391347,14.670465,,0,1413330,I
1413331,6443,Szczedrzykowice,51.215151,16.350384,http://kd.kiedyprzyjedzie.pl/6443,1,,
1474998,,Szczedrzykowice,51.215151,16.350384,,0,1413331,I
1475001,,Szczedrzykowice,51.215151,16.350384,,0,1413331,II
1536323,,Szczedrzykowice,51.215151,16.350384,,0,1413331,
1413332,6445,Szczepanów,50.898367,16.625159,http://kd.kiedyprzyjedzie.pl/6445,1,,
1474669,,Szczepanów,50.898367,16.625159,,0,1413332,I
1474674,,Szczepanów,50.898367,16.625159,,0,1413332,
1413333,6446,Szczytna,50.408364,16.449786,http://kd.kiedyprzyjedzie.pl/6446,1,,
1474648,,Szczytna,50.408364,16.449786,,0,1413333,I
1413334,6448,Szewce,51.215702,16.95446,http://kd.kiedyprzyjedzie.pl/6448,1,,
1474866,,Szewce,51.215702,16.95446,,0,1413334,II
1475203,,Szewce,51.215702,16.95446,,0,1413334,I
1413335,6450,Szklarska Poręba Dolna,50.848359,15.55696,http://kd.kiedyprzyjedzie.pl/6450,1,,
1475122,,Szklarska Poręba Dolna,50.848359,15.55696,,0,1413335,I
1413336,209,Szklarska Poręba Górna,50.832658,15.518717,http://kd.kiedyprzyjedzie.pl/209,1,,
1474614,,Szklarska Poręba Górna,50.832658,15.518717,,0,1413336,III
1475124,,Szklarska Poręba Górna,50.832658,15.518717,,0,1413336,I
1475127,,Szklarska Poręba Górna,50.832658,15.518717,,0,1413336,II
1536272,,Szklarska Poręba Górna,50.832658,15.518717,,0,1413336,
1413337,6447,Szklarska Poręba Huta,50.826665,15.497064,http://kd.kiedyprzyjedzie.pl/6447,1,,
1474613,,Szklarska Poręba Huta,50.826665,15.497064,,0,1413337,I
1413338,6449,Szklarska Poręba Średnia,50.838468,15.539976,http://kd.kiedyprzyjedzie.pl/6449,1,,
1475123,,Szklarska Poręba Średnia,50.838468,15.539976,,0,1413338,I
1413349,9317,Tanvald,50.743471,15.311025,http://kd.kiedyprzyjedzie.pl/9317,1,,
1474605,,Tanvald,50.743471,15.311025,,0,1413349,
1413350,9325,Tanvald zastávka,50.737014,15.305274,http://kd.kiedyprzyjedzie.pl/9325,1,,
1474604,,Tanvald zastávka,50.737014,15.305274,,0,1413350,
1473662,9389,Teplice nad Metují,50.581607,16.178687,http://kd.kiedyprzyjedzie.pl/9389,1,,
1536276,,Teplice nad Metují,50.581607,16.178687,,0,1473662,
1473663,9390,Teplice nad Metují město,50.592752,16.1724,http://kd.kiedyprzyjedzie.pl/9390,1,,
1536275,,Teplice nad Metují město,50.592752,16.1724,,0,1473663,
1473664,9391,Teplice nad Metují skály,50.596934,16.149784,http://kd.kiedyprzyjedzie.pl/9391,1,,
1536274,,Teplice nad Metují skály,50.596934,16.149784,,0,1473664,
1413351,6471,Tomaszów Bolesławiecki,51.286079,15.679995,http://kd.kiedyprzyjedzie.pl/6471,1,,
1475130,,Tomaszów Bolesławiecki,51.286079,15.679995,,0,1413351,I
1475141,,Tomaszów Bolesławiecki,51.286079,15.679995,,0,1413351,II
1413352,9386,Trutnov hl. n.,50.565261,15.911056,http://kd.kiedyprzyjedzie.pl/9386,1,,
1474824,,Trutnov hl. n.,50.565261,15.911056,,0,1413352,
1413353,9385,Trutnov střed,50.577825,15.945217,http://kd.kiedyprzyjedzie.pl/9385,1,,
1474825,,Trutnov střed,50.577825,15.945217,,0,1413353,
1413354,6473,Trzcińsko,50.883215,15.872033,http://kd.kiedyprzyjedzie.pl/6473,1,,
1474920,,Trzcińsko,50.883215,15.872033,,0,1413354,I
1536282,,Trzcińsko,50.883215,15.872033,,0,1413354,
1413355,6475,Trzebieszowice,50.346643,16.775683,http://kd.kiedyprzyjedzie.pl/6475,1,,
1474743,,Trzebieszowice,50.346643,16.775683,,0,1413355,
1413356,6553,Trzebnica,51.304044,17.063326,http://kd.kiedyprzyjedzie.pl/6553,1,,
1474713,,Trzebnica,51.304044,17.063326,,0,1413356,I
1474737,,Trzebnica,51.304044,17.063326,,0,1413356,
1413357,229,Tuplice,51.671842,14.83739,http://kd.kiedyprzyjedzie.pl/229,1,,
1475036,,Tuplice,51.671842,14.83739,,0,1413357,IV
1536286,,Tuplice,51.671842,14.83739,,0,1413357,III
1475044,,Tuplice,51.671842,14.83739,,0,1413357,
1413358,7520,Tuplice Dębinka,51.666135,14.909976,http://kd.kiedyprzyjedzie.pl/7520,1,,
1475043,,Tuplice Dębinka,51.666135,14.909976,,0,1413358,
1475035,,Tuplice Dębinka,51.666135,14.909976,,0,1413358,I
1413359,6483,Ubocze,51.056314,15.419985,http://kd.kiedyprzyjedzie.pl/6483,1,,
1474938,,Ubocze,51.056314,15.419985,,0,1413359,I
1413360,6485,Unisław Śląski,50.711057,16.224229,http://kd.kiedyprzyjedzie.pl/6485,1,,
1536268,,Unisław Śląski,50.711057,16.224229,,0,1413360,I
1413361,9342,Vesec u Liberce,50.743539,15.080806,http://kd.kiedyprzyjedzie.pl/9342,1,,
1474590,,Vesec u Liberce,50.743539,15.080806,,0,1413361,
1413362,9341,Vratislavice nad Nisou,50.740124,15.093508,http://kd.kiedyprzyjedzie.pl/9341,1,,
1474591,,Vratislavice nad Nisou,50.740124,15.093508,,0,1413362,
1413363,6572,Wałbrzych Centrum,50.773373,16.269853,http://kd.kiedyprzyjedzie.pl/6572,1,,
1474816,,Wałbrzych Centrum,50.773373,16.269853,,0,1413363,II
1474780,,Wałbrzych Centrum,50.773373,16.269853,,0,1413363,I
1413364,6486,Wałbrzych Fabryczny,50.761393,16.267053,http://kd.kiedyprzyjedzie.pl/6486,1,,
1475164,,Wałbrzych Fabryczny,50.761393,16.267053,,0,1413364,II
1475147,,Wałbrzych Fabryczny,50.761393,16.267053,,0,1413364,I
1413365,241,Wałbrzych Główny,50.743398,16.28069,http://kd.kiedyprzyjedzie.pl/241,1,,
1474781,,Wałbrzych Główny,50.743398,16.28069,,0,1413365,I
1474760,,Wałbrzych Główny,50.743398,16.28069,,0,1413365,II
1474777,,Wałbrzych Główny,50.743398,16.28069,,0,1413365,
1413366,6487,Wałbrzych Miasto,50.786229,16.28523,http://kd.kiedyprzyjedzie.pl/6487,1,,
1474779,,Wałbrzych Miasto,50.786229,16.28523,,0,1413366,II
1474782,,Wałbrzych Miasto,50.786229,16.28523,,0,1413366,
1413367,6488,Wałbrzych Szczawienko,50.816397,16.302719,http://kd.kiedyprzyjedzie.pl/6488,1,,
1474990,,Wałbrzych Szczawienko,50.816397,16.302719,,0,1413367,I
1475125,,Wałbrzych Szczawienko,50.816397,16.302719,,0,1413367,II
1475107,,Wałbrzych Szczawienko,50.816397,16.302719,,0,1413367,
1413368,6489,Warkocz,50.829399,17.046304,http://kd.kiedyprzyjedzie.pl/6489,1,,
1475196,,Warkocz,50.829399,17.046304,,0,1413368,I
1474854,,Warkocz,50.829399,17.046304,,0,1413368,II
1413371,235,Węgliniec,51.290105,15.222968,http://kd.kiedyprzyjedzie.pl/235,1,,
1475136,,Węgliniec,51.290105,15.222968,,0,1413371,III
1474983,,Węgliniec,51.290105,15.222968,,0,1413371,IV
1475190,,Węgliniec,51.290105,15.222968,,0,1413371,II
1475113,,Węgliniec,51.290105,15.222968,,0,1413371,I
1474988,,Węgliniec,51.290105,15.222968,,0,1413371,
1413372,6490,Węgry,50.925738,17.032829,http://kd.kiedyprzyjedzie.pl/6490,1,,
1475194,,Węgry,50.925738,17.032829,,0,1413372,II
1474856,,Węgry,50.925738,17.032829,,0,1413372,I
1413369,9448,Weickersdorf (Sachs),51.110963,14.151238,http://kd.kiedyprzyjedzie.pl/9448,1,,
1474630,,Weickersdorf (Sachs),51.110963,14.151238,,0,1413369,
1413370,9428,Weißwasser (Oberlausitz),51.505592,14.638182,http://kd.kiedyprzyjedzie.pl/9428,1,,
1475114,,Weißwasser (Oberlausitz),51.505592,14.638182,,0,1413370,
1413373,6493,Wierzbice,50.965123,16.899229,http://kd.kiedyprzyjedzie.pl/6493,1,,
1474664,,Wierzbice,50.965123,16.899229,,0,1413373,I
1474657,,Wierzbice,50.965123,16.899229,,0,1413373,
1413374,6494,Wierzbowa Śląska,51.396904,15.758852,http://kd.kiedyprzyjedzie.pl/6494,1,,
1475028,,Wierzbowa Śląska,51.396904,15.758852,,0,1413374,I
1413375,6495,Wierzchowice,51.502859,17.351695,http://kd.kiedyprzyjedzie.pl/6495,1,,
1475093,,Wierzchowice,51.502859,17.351695,,0,1413375,I
1413376,6502,Witków Śląski,50.793824,16.127465,http://kd.kiedyprzyjedzie.pl/6502,1,,
1475151,,Witków Śląski,50.793824,16.127465,,0,1413376,II
1474918,,Witków Śląski,50.793824,16.127465,,0,1413376,I
1413377,6504,Wojanów,50.884741,15.821286,http://kd.kiedyprzyjedzie.pl/6504,1,,
1475154,,Wojanów,50.884741,15.821286,,0,1413377,I
1474921,,Wojanów,50.884741,15.821286,,0,1413377,II
1536283,,Wojanów,50.884741,15.821286,,0,1413377,
1413378,247,Wołów,51.333532,16.633274,http://kd.kiedyprzyjedzie.pl/247,1,,
1474784,,Wołów,51.333532,16.633274,,0,1413378,I
1536300,,Wołów,51.333532,16.633274,,0,1413378,
1413379,906,Wrocław Brochów,51.064281,17.084628,http://kd.kiedyprzyjedzie.pl/906,1,,
1474903,,Wrocław Brochów,51.064281,17.084628,,0,1413379,I
1413380,248,Wrocław Główny,51.097917,17.037957,http://kd.kiedyprzyjedzie.pl/248,1,,
1474738,,Wrocław Główny,51.097917,17.037957,,0,1413380,I
1474640,,Wrocław Główny,51.097917,17.037957,,0,1413380,IV
1536277,,Wrocław Główny,51.097917,17.037957,,0,1413380,VI
1474651,,Wrocław Główny,51.097917,17.037957,,0,1413380,V
1536279,,Wrocław Główny,51.097917,17.037957,,0,1413380,III
1474861,,Wrocław Główny,51.097917,17.037957,,0,1413380,II
1474679,,Wrocław Główny,51.097917,17.037957,,0,1413380,
1413381,6570,Wrocław Grabiszyn,51.09664,16.974274,http://kd.kiedyprzyjedzie.pl/6570,1,,
1474794,,Wrocław Grabiszyn,51.09664,16.974274,,0,1413381,I
1474819,,Wrocław Grabiszyn,51.09664,16.974274,,0,1413381,II
1475105,,Wrocław Grabiszyn,51.09664,16.974274,,0,1413381,
1413382,6511,Wrocław Kowale,51.134967,17.100139,http://kd.kiedyprzyjedzie.pl/6511,1,,
1475167,,Wrocław Kowale,51.134967,17.100139,,0,1413382,I
1413383,6512,Wrocław Kuźniki,51.128026,16.952237,http://kd.kiedyprzyjedzie.pl/6512,1,,
1474792,,Wrocław Kuźniki,51.128026,16.952237,,0,1413383,I
1536292,,Wrocław Kuźniki,51.128026,16.952237,,0,1413383,
1413384,6513,Wrocław Leśnica,51.141916,16.867326,http://kd.kiedyprzyjedzie.pl/6513,1,,
1475006,,Wrocław Leśnica,51.141916,16.867326,,0,1413384,III
1474993,,Wrocław Leśnica,51.141916,16.867326,,0,1413384,II
1536328,,Wrocław Leśnica,51.141916,16.867326,,0,1413384,
1413385,6514,Wrocław Mikołajów,51.1163,16.998395,http://kd.kiedyprzyjedzie.pl/6514,1,,
1475181,,Wrocław Mikołajów,51.1163,16.998395,,0,1413385,II
1474701,,Wrocław Mikołajów,51.1163,16.998395,,0,1413385,I
1474726,,Wrocław Mikołajów,51.1163,16.998395,,0,1413385,
1413386,6515,Wrocław Muchobór,51.111064,16.974872,http://kd.kiedyprzyjedzie.pl/6515,1,,
1474963,,Wrocław Muchobór,51.111064,16.974872,,0,1413386,I
1474793,,Wrocław Muchobór,51.111064,16.974872,,0,1413386,II
1475046,,Wrocław Muchobór,51.111064,16.974872,,0,1413386,
1413387,6516,Wrocław Nadodrze,51.125658,17.03299,http://kd.kiedyprzyjedzie.pl/6516,1,,
1474703,,Wrocław Nadodrze,51.125658,17.03299,,0,1413387,II
1474728,,Wrocław Nadodrze,51.125658,17.03299,,0,1413387,
1413388,6517,Wrocław Nowy Dwór,51.119688,16.955185,http://kd.kiedyprzyjedzie.pl/6517,1,,
1474964,,Wrocław Nowy Dwór,51.119688,16.955185,,0,1413388,I
1474950,,Wrocław Nowy Dwór,51.119688,16.955185,,0,1413388,II
1475047,,Wrocław Nowy Dwór,51.119688,16.955185,,0,1413388,
1413389,6518,Wrocław Osobowice,51.167013,16.996673,http://kd.kiedyprzyjedzie.pl/6518,1,,
1475205,,Wrocław Osobowice,51.167013,16.996673,,0,1413389,II
1474864,,Wrocław Osobowice,51.167013,16.996673,,0,1413389,I
1413390,6576,Wrocław Partynice,51.061102,16.997656,http://kd.kiedyprzyjedzie.pl/6576,1,,
1474681,,Wrocław Partynice,51.061102,16.997656,,0,1413390,
1474653,,Wrocław Partynice,51.061102,16.997656,,0,1413390,II
1474699,,Wrocław Partynice,51.061102,16.997656,,0,1413390,I
1413391,6535,Wrocław Pawłowice,51.168757,17.108368,http://kd.kiedyprzyjedzie.pl/6535,1,,
1474707,,Wrocław Pawłowice,51.168757,17.108368,,0,1413391,I
1474732,,Wrocław Pawłowice,51.168757,17.108368,,0,1413391,
1413392,6577,Wrocław Popiele,51.12245,17.11429,http://kd.kiedyprzyjedzie.pl/6577,1,,
1475168,,Wrocław Popiele,51.12245,17.11429,,0,1413392,I
1413393,6520,Wrocław Popowice,51.127361,17.00142,http://kd.kiedyprzyjedzie.pl/6520,1,,
1474862,,Wrocław Popowice,51.127361,17.00142,,0,1413393,I
1413394,6521,Wrocław Pracze,51.169687,16.903508,http://kd.kiedyprzyjedzie.pl/6521,1,,
1475066,,Wrocław Pracze,51.169687,16.903508,,0,1413394,I
1474790,,Wrocław Pracze,51.169687,16.903508,,0,1413394,II
1536294,,Wrocław Pracze,51.169687,16.903508,,0,1413394,
1413395,6522,Wrocław Psie Pole,51.150451,17.118542,http://kd.kiedyprzyjedzie.pl/6522,1,,
1474705,,Wrocław Psie Pole,51.150451,17.118542,,0,1413395,II
1475083,,Wrocław Psie Pole,51.150451,17.118542,,0,1413395,I
1474730,,Wrocław Psie Pole,51.150451,17.118542,,0,1413395,
1413396,6571,Wrocław Różanka,51.137921,17.0037,http://kd.kiedyprzyjedzie.pl/6571,1,,
1475206,,Wrocław Różanka,51.137921,17.0037,,0,1413396,II
1474863,,Wrocław Różanka,51.137921,17.0037,,0,1413396,I
1413397,6523,Wrocław Sołtysowice,51.142546,17.083544,http://kd.kiedyprzyjedzie.pl/6523,1,,
1475166,,Wrocław Sołtysowice,51.142546,17.083544,,0,1413397,III
1475214,,Wrocław Sołtysowice,51.142546,17.083544,,0,1413397,I
1474704,,Wrocław Sołtysowice,51.142546,17.083544,,0,1413397,II
1474729,,Wrocław Sołtysowice,51.142546,17.083544,,0,1413397,
1413398,6519,Wrocław Stadion,51.137042,16.94064,http://kd.kiedyprzyjedzie.pl/6519,1,,
1474791,,Wrocław Stadion,51.137042,16.94064,,0,1413398,II
1475065,,Wrocław Stadion,51.137042,16.94064,,0,1413398,I
1536293,,Wrocław Stadion,51.137042,16.94064,,0,1413398,
1413399,6578,Wrocław Strachocin,51.109828,17.145707,http://kd.kiedyprzyjedzie.pl/6578,1,,
1475170,,Wrocław Strachocin,51.109828,17.145707,,0,1413399,I
1413402,6526,Wrocław Świniary,51.19794,16.969878,http://kd.kiedyprzyjedzie.pl/6526,1,,
1474865,,Wrocław Świniary,51.19794,16.969878,,0,1413402,I
1475204,,Wrocław Świniary,51.19794,16.969878,,0,1413402,II
1413400,6524,Wrocław Swojczyce,51.115866,17.121347,http://kd.kiedyprzyjedzie.pl/6524,1,,
1475169,,Wrocław Swojczyce,51.115866,17.121347,,0,1413400,II
1413401,6569,Wrocław Szczepin,51.122944,17.014241,http://kd.kiedyprzyjedzie.pl/6569,1,,
1475180,,Wrocław Szczepin,51.122944,17.014241,,0,1413401,I
1474702,,Wrocław Szczepin,51.122944,17.014241,,0,1413401,II
1474727,,Wrocław Szczepin,51.122944,17.014241,,0,1413401,
1413403,6527,Wrocław Wojnów,51.103556,17.157707,http://kd.kiedyprzyjedzie.pl/6527,1,,
1475171,,Wrocław Wojnów,51.103556,17.157707,,0,1413403,I
1413404,6579,Wrocław Wojnów Wschodni,51.098062,17.168243,http://kd.kiedyprzyjedzie.pl/6579,1,,
1475172,,Wrocław Wojnów Wschodni,51.098062,17.168243,,0,1413404,I
1413405,6528,Wrocław Wojszyce,51.069077,17.032157,http://kd.kiedyprzyjedzie.pl/6528,1,,
1474700,,Wrocław Wojszyce,51.069077,17.032157,,0,1413405,I
1474652,,Wrocław Wojszyce,51.069077,17.032157,,0,1413405,II
1474680,,Wrocław Wojszyce,51.069077,17.032157,,0,1413405,
1413406,6529,Wrocław Zachodni,51.089956,16.949533,http://kd.kiedyprzyjedzie.pl/6529,1,,
1474892,,Wrocław Zachodni,51.089956,16.949533,,0,1413406,I
1474902,,Wrocław Zachodni,51.089956,16.949533,,0,1413406,II
1536284,,Wrocław Zachodni,51.089956,16.949533,,0,1413406,
1413407,6530,Wrocław Zakrzów,51.158721,17.122147,http://kd.kiedyprzyjedzie.pl/6530,1,,
1474706,,Wrocław Zakrzów,51.158721,17.122147,,0,1413407,I
1474731,,Wrocław Zakrzów,51.158721,17.122147,,0,1413407,
1413408,6531,Wrocław Żerniki,51.126159,16.916367,http://kd.kiedyprzyjedzie.pl/6531,1,,
1475007,,Wrocław Żerniki,51.126159,16.916367,,0,1413408,II
1474992,,Wrocław Żerniki,51.126159,16.916367,,0,1413408,I
1536329,,Wrocław Żerniki,51.126159,16.916367,,0,1413408,
1413414,6543,Ząbkowice Śląskie,50.597297,16.812778,http://kd.kiedyprzyjedzie.pl/6543,1,,
1475229,,Ząbkowice Śląskie,50.597297,16.812778,,0,1413414,I
1475232,,Ząbkowice Śląskie,50.597297,16.812778,,0,1413414,II
1413409,6534,Zagajnik,51.270119,15.299446,http://kd.kiedyprzyjedzie.pl/6534,1,,
1475132,,Zagajnik,51.270119,15.299446,,0,1413409,II
1475140,,Zagajnik,51.270119,15.299446,,0,1413409,I
1413422,269,Żagań,51.603766,15.315421,http://kd.kiedyprzyjedzie.pl/269,1,,
1475031,,Żagań,51.603766,15.315421,,0,1413422,I
1413410,6617,Zagórze Śląskie,50.753741,16.403548,http://kd.kiedyprzyjedzie.pl/6617,1,,
1474800,,Zagórze Śląskie,50.753741,16.403548,,0,1413410,I
1413411,6537,Zakrzów Kotowice,51.035785,17.210053,http://kd.kiedyprzyjedzie.pl/6537,1,,
1474905,,Zakrzów Kotowice,51.035785,17.210053,,0,1413411,I
1413412,6540,Zaręba,51.098102,15.219586,http://kd.kiedyprzyjedzie.pl/6540,1,,
1474941,,Zaręba,51.098102,15.219586,,0,1413412,II
1413423,6554,Żarów,50.939498,16.492777,http://kd.kiedyprzyjedzie.pl/6554,1,,
1474796,,Żarów,50.939498,16.492777,,0,1413423,I
1474804,,Żarów,50.939498,16.492777,,0,1413423,
1413424,270,Żary,51.634465,15.137714,http://kd.kiedyprzyjedzie.pl/270,1,,
1475032,,Żary,51.634465,15.137714,,0,1413424,IV
1475061,,Żary,51.634465,15.137714,,0,1413424,I
1475238,,Żary,51.634465,15.137714,,0,1413424,III
1475064,,Żary,51.634465,15.137714,,0,1413424,II
1475040,,Żary,51.634465,15.137714,,0,1413424,
1413413,256,Zasieki,51.735485,14.669205,http://kd.kiedyprzyjedzie.pl/256,1,,
1475045,,Zasieki,51.735485,14.669205,,0,1413413,
1475037,,Zasieki,51.735485,14.669205,,0,1413413,I
1413415,7561,Zduny,51.646421,17.366268,http://kd.kiedyprzyjedzie.pl/7561,1,,
1475096,,Zduny,51.646421,17.366268,,0,1413415,II
1413416,6545,Zebrzydowa,51.254653,15.389217,http://kd.kiedyprzyjedzie.pl/6545,1,,
1475131,,Zebrzydowa,51.254653,15.389217,,0,1413416,II
1475137,,Zebrzydowa,51.254653,15.389217,,0,1413416,I
1413425,6555,Żelazno,50.371461,16.674801,http://kd.kiedyprzyjedzie.pl/6555,1,,
1474745,,Żelazno,50.371461,16.674801,,0,1413425,
1413417,264,Zgorzelec,51.140016,15.00409,http://kd.kiedyprzyjedzie.pl/264,1,,
1474616,,Zgorzelec,51.140016,15.00409,,0,1413417,III
1474987,,Zgorzelec,51.140016,15.00409,,0,1413417,I
1475133,,Zgorzelec,51.140016,15.00409,,0,1413417,II
1413418,266,Zgorzelec Miasto,51.154803,15.020129,http://kd.kiedyprzyjedzie.pl/266,1,,
1474986,,Zgorzelec Miasto,51.154803,15.020129,,0,1413418,I
1475134,,Zgorzelec Miasto,51.154803,15.020129,,0,1413418,II
1413420,6550,Ziębice,50.608498,17.033889,http://kd.kiedyprzyjedzie.pl/6550,1,,
1474642,,Ziębice,50.608498,17.033889,,0,1413420,I
1474890,,Ziębice,50.608498,17.033889,,0,1413420,II
1413419,267,Zielona Góra Główna,51.947463,15.513216,http://kd.kiedyprzyjedzie.pl/267,1,,
1536287,,Zielona Góra Główna,51.947463,15.513216,,0,1413419,III
1475100,,Zielona Góra Główna,51.947463,15.513216,,0,1413419,
1536288,,Zielona Góra Główna,51.947463,15.513216,,0,1413419,II
1473734,6300,Zielona Góra Nowy Kisielin,51.915746,15.62647,http://kd.kiedyprzyjedzie.pl/6300,1,,
1536311,,Zielona Góra Nowy Kisielin,51.915746,15.62647,,0,1473734,
1536320,,Zielona Góra Nowy Kisielin,51.915746,15.62647,,0,1473734,II
1536290,,Zielona Góra Nowy Kisielin,51.915746,15.62647,,0,1473734,I
1473735,7473,Zielona Góra Stary Kisielin,51.937097,15.589203,http://kd.kiedyprzyjedzie.pl/7473,1,,
1536312,,Zielona Góra Stary Kisielin,51.937097,15.589203,,0,1473735,
1536319,,Zielona Góra Stary Kisielin,51.937097,15.589203,,0,1473735,I
1536291,,Zielona Góra Stary Kisielin,51.937097,15.589203,,0,1473735,II
1413426,6557,Żmigród,51.47534,16.901873,http://kd.kiedyprzyjedzie.pl/6557,1,,
1475199,,Żmigród,51.47534,16.901873,,0,1413426,II
1474871,,Żmigród,51.47534,16.901873,,0,1413426,I
1413421,9449,Zoblitz,51.123652,14.750938,http://kd.kiedyprzyjedzie.pl/9449,1,,
1474621,,Zoblitz,51.123652,14.750938,,0,1413421,
1413427,6558,Żórawina,50.9835,17.049596,http://kd.kiedyprzyjedzie.pl/6558,1,,
1475193,,Żórawina,50.9835,17.049596,,0,1413427,I
1474857,,Żórawina,50.9835,17.049596,,0,1413427,II
